,Feature_ID,Name,Description,Diameter,Center_Lon,Center_Lat,Type,USGS,Wikipedia
,2482,Hertzsprung,,536.37,-128.66,1.37,"Crater, craters",http://planetarynames.wr.usgs.gov/Feature/2482,https://www.wikipedia.org/wiki/Hertzsprung_(crater)
,326,Apollo,,524.23,-151.48,-35.69,"Crater, craters",http://planetarynames.wr.usgs.gov/Feature/326,https://en.wikipedia.org/wiki/Apollo_(crater)
,3090,Korolev,,423.41,-157.41,-4.19,"Crater, craters",http://planetarynames.wr.usgs.gov/Feature/3090,https://www.wikipedia.org/wiki/Korolev_(crater)
,3472,Lorentz,,378.42,-97.19,34.59,"Crater, craters",http://planetarynames.wr.usgs.gov/Feature/3472,https://www.wikipedia.org/wiki/Lorwww.z_(crater)
,4775,Poincaré,,345.99,163.99,-56.86,"Crater, craters",http://planetarynames.wr.usgs.gov/Feature/4775,https://www.wikipedia.org/wiki/Poincaré_(crater)
,2365,Harkhebi,,337.14,98.74,40.87,"Crater, craters",http://planetarynames.wr.usgs.gov/Feature/2365,https://www.wikipedia.org/wiki/Harkhebi_(crater)
,753,Birkhoff,,329.81,-145.65,58.45,"Crater, craters",http://planetarynames.wr.usgs.gov/Feature/753,https://www.wikipedia.org/wiki/Birkhoff_(crater)
,3837,Mendeleev,,325.13,141.17,5.38,"Crater, craters",http://planetarynames.wr.usgs.gov/Feature/3837,https://www.wikipedia.org/wiki/Mwww.eleev_(crater)
,4749,Planck,,319.46,135.34,-57.27,"Crater, craters",http://planetarynames.wr.usgs.gov/Feature/4749,https://www.wikipedia.org/wiki/Planck_(crater)
,5381,Schrödinger,,316.39,132.93,-74.73,"Crater, craters",http://planetarynames.wr.usgs.gov/Feature/5381,https://www.wikipedia.org/wiki/Schrödinger_(crater)
,561,Bailly,,300.56,-68.9,-66.82,"Crater, craters",http://planetarynames.wr.usgs.gov/Feature/561,https://en.wikipedia.org/wiki/Bailly_(crater)
,2054,Gagarin,,261.83,149.35,-19.66,"Crater, craters",http://planetarynames.wr.usgs.gov/Feature/2054,https://www.wikipedia.org/wiki/Gagarin_(crater)
,3904,Milne,,259.97,112.78,-31,"Crater, craters",http://planetarynames.wr.usgs.gov/Feature/3904,https://www.wikipedia.org/wiki/Milne_(crater)
,1940,Fermi,,241.41,123.24,-19.61,"Crater, craters",http://planetarynames.wr.usgs.gov/Feature/1940,https://www.wikipedia.org/wiki/Fermi_(crater)
,6305,Van de Graaff,,240.47,172.01,-27.04,"Crater, craters",http://planetarynames.wr.usgs.gov/Feature/6305,https://www.wikipedia.org/wiki/Van de Graaff_(crater)
,3335,Leibnitz,,236.67,179.35,-38.24,"Crater, craters",http://planetarynames.wr.usgs.gov/Feature/3335,https://www.wikipedia.org/wiki/Leibnitz_(crater)
,1694,d'Alembert,,233.55,164.89,51.07,"Crater, craters",http://planetarynames.wr.usgs.gov/Feature/1694,https://www.wikipedia.org/wiki/d'Alembert_(crater)
,4604,Pasteur,,232.77,104.91,-11.58,"Crater, craters",http://planetarynames.wr.usgs.gov/Feature/4604,https://www.wikipedia.org/wiki/Pasteur_(crater)
,2081,Galois,,231.97,-152.99,-13.94,"Crater, craters",http://planetarynames.wr.usgs.gov/Feature/2081,https://www.wikipedia.org/wiki/Galois_(crater)
,1236,Clavius,,230.77,-14.73,-58.62,"Crater, craters",http://planetarynames.wr.usgs.gov/Feature/1236,https://www.wikipedia.org/wiki/Clavius_(crater)
,1502,Deslandres,,227.02,-5.57,-32.55,"Crater, craters",http://planetarynames.wr.usgs.gov/Feature/1502,https://www.wikipedia.org/wiki/Deslandres_(crater)
,990,Campbell,,222.48,152.91,45.57,"Crater, craters",http://planetarynames.wr.usgs.gov/Feature/990,https://www.wikipedia.org/wiki/Campbell_(crater)
,3264,Landau,,218.15,-119.34,42.16,"Crater, craters",http://planetarynames.wr.usgs.gov/Feature/3264,https://www.wikipedia.org/wiki/Landau_(crater)
,684,Bel'kovich,,215.08,90.15,61.53,"Crater, craters",http://planetarynames.wr.usgs.gov/Feature/684,https://www.wikipedia.org/wiki/Bel'kovich_(crater)
,4770,Poczobutt,,212.36,-99.23,57.27,"Crater, craters",http://planetarynames.wr.usgs.gov/Feature/4770,https://www.wikipedia.org/wiki/Poczobutt_(crater)
,5368,Schickard,,212.18,-55.11,-44.38,"Crater, craters",http://planetarynames.wr.usgs.gov/Feature/5368,https://www.wikipedia.org/wiki/Schickard_(crater)
,5389,Schwarzschild,,211.42,121.57,70.08,"Crater, craters",http://planetarynames.wr.usgs.gov/Feature/5389,https://www.wikipedia.org/wiki/Schwarzschild_(crater)
,4480,Oppenheimer,,201.16,-166.03,-35.32,"Crater, craters",http://planetarynames.wr.usgs.gov/Feature/4480,https://www.wikipedia.org/wiki/Oppwww.eimer_(crater)
,2800,Janssen,,200.65,40.82,-44.96,"Crater, craters",http://planetarynames.wr.usgs.gov/Feature/2800,https://www.wikipedia.org/wiki/Jansswww.(crater)
,2582,Humboldt,,199.46,80.96,-27.02,"Crater, craters",http://planetarynames.wr.usgs.gov/Feature/2582,https://www.wikipedia.org/wiki/Humboldt_(crater)
,6711,Zeeman,,186.56,-135.06,-75.07,"Crater, craters",http://planetarynames.wr.usgs.gov/Feature/6711,https://www.wikipedia.org/wiki/Zeeman_(crater)
,6440,Von Kármán,,186.35,176.25,-44.45,"Crater, craters",http://planetarynames.wr.usgs.gov/Feature/6440,https://www.wikipedia.org/wiki/Von Kármán_(crater)
,6108,Tsiolkovskiy,,184.39,128.97,-20.38,"Crater, craters",http://planetarynames.wr.usgs.gov/Feature/6108,https://www.wikipedia.org/wiki/Tsiolkovskiy_(crater)
,4668,Petavius,,184.06,60.78,-25.39,"Crater, craters",http://planetarynames.wr.usgs.gov/Feature/4668,https://www.wikipedia.org/wiki/Petavius_(crater)
,3625,Mandel'shtam,,181.89,162.39,5.7,"Crater, craters",http://planetarynames.wr.usgs.gov/Feature/3625,https://www.wikipedia.org/wiki/Mandel'shtam_(crater)
,1745,Einstein,,181.47,-88.65,16.6,"Crater, craters",http://planetarynames.wr.usgs.gov/Feature/1745,https://www.wikipedia.org/wiki/Einstein_(crater)